% program   : rnx2rtkp ver.2.4.3 b31
% inp file  : rove333v.18o
% inp file  : base333v.18o
% inp file  : brdc3330.18p
% obs start : 2018/11/29 21:06:10.0 GPST (week2029 421570.0s)
% obs end   : 2018/11/29 21:36:23.0 GPST (week2029 423383.0s)
% ref pos   : 37.380990597 -121.941003696   -19.2628
%
% (lat/lon/height=WGS84/ellipsoidal,Q=1:fix,2:float,3:sbas,4:dgps,5:single,6:ppp,ns=# of satellites)
%  GPST          latitude(deg) longitude(deg)  height(m)   Q  ns   sdn(m)   sde(m)   sdu(m)  sdne(m)  sdeu(m)  sdun(m) age(s)  ratio
2029 421570.000   37.381193401 -121.941202940   -18.7200   2   7   0.9579   0.4540   1.8667  -0.3378  -0.3034   0.8981   0.00    1.2
2029 421570.100   37.381193488 -121.941203284   -18.9525   2   7   0.6803   0.3223   1.3256  -0.2397  -0.2151   0.6381   0.10    1.2
2029 421570.200   37.381193296 -121.941203550   -19.0995   2   7   0.5563   0.2636   1.0839  -0.1959  -0.1758   0.5218   0.20    1.1
2029 421570.300   37.381193132 -121.941203441   -19.1949   2   7   0.4822   0.2284   0.9394  -0.1698  -0.1523   0.4523   0.30    1.1
2029 421570.400   37.381193142 -121.941203451   -19.2187   2   7   0.4315   0.2044   0.8406  -0.1519  -0.1363   0.4047   0.40    1.1
2029 421570.500   37.381193441 -121.941203565   -19.3055   2   7   0.3940   0.1866   0.7676  -0.1387  -0.1244   0.3696   0.50    1.1
2029 421570.600   37.381193684 -121.941203575   -19.3671   2   7   0.3649   0.1728   0.7108  -0.1285  -0.1152   0.3423   0.60    1.1
2029 421570.700   37.381193998 -121.941203576   -19.4235   2   7   0.3414   0.1617   0.6650  -0.1202  -0.1078   0.3202   0.70    1.0
2029 421570.800   37.381194231 -121.941203493   -19.4361   2   7   0.3219   0.1525   0.6271  -0.1133  -0.1016   0.3019   0.80    1.1
2029 421570.900   37.381194356 -121.941203386   -19.4955   2   7   0.3054   0.1447   0.5950  -0.1075  -0.0964   0.2865   0.90    1.2
2029 421571.000   37.381194270 -121.941203211   -19.6354   2   7   0.2912   0.1380   0.5674  -0.1025  -0.0919   0.2732   0.00    1.1
2029 421571.100   37.381194199 -121.941203092   -19.7836   2   7   0.2789   0.1321   0.5432  -0.0982  -0.0880   0.2616   0.10    1.1
2029 421571.200   37.381194199 -121.941203015   -19.9003   2   7   0.2679   0.1269   0.5220  -0.0943  -0.0845   0.2513   0.20    1.0
2029 421571.300   37.381194205 -121.941202880   -19.9758   2   7   0.2582   0.1223   0.5030  -0.0909  -0.0814   0.2422   0.30    1.0
2029 421571.400   37.381194207 -121.941202760   -20.0554   2   7   0.2495   0.1182   0.4860  -0.0878  -0.0787   0.2340   0.40    1.0
2029 421571.500   37.381194181 -121.941202668   -20.1092   2   7   0.2416   0.1145   0.4706  -0.0850  -0.0762   0.2265   0.50    1.0
2029 421571.600   37.381194206 -121.941202529   -20.1363   2   7   0.2344   0.1110   0.4565  -0.0825  -0.0739   0.2198   0.60    1.0
2029 421571.700   37.381194184 -121.941202432   -20.1731   2   7   0.2278   0.1079   0.4437  -0.0802  -0.0718   0.2136   0.70    1.1
2029 421571.800   37.381194214 -121.941202383   -20.2076   2   7   0.2217   0.1050   0.4319  -0.0781  -0.0699   0.2079   0.80    1.1
2029 421571.900   37.381194124 -121.941202300   -20.2391   2   7   0.2161   0.1024   0.4210  -0.0761  -0.0681   0.2026   0.90    1.1
2029 421572.000   37.381194140 -121.941202284   -20.2855   2   7   0.2109   0.0999   0.4108  -0.0743  -0.0664   0.1977   0.00    1.1
2029 421572.100   37.381194132 -121.941202258   -20.2945   2   7   0.2061   0.0976   0.4014  -0.0726  -0.0649   0.1932   0.10    1.2
2029 421572.200   37.381194180 -121.941202223   -20.2993   2   7   0.2015   0.0955   0.3926  -0.0710  -0.0635   0.1889   0.20    1.2
2029 421572.300   37.381194197 -121.941202272   -20.3172   2   7   0.1973   0.0935   0.3843  -0.0695  -0.0621   0.1849   0.30    1.2
2029 421572.400   37.381194319 -121.941202330   -20.3333   2   7   0.1933   0.0916   0.3765  -0.0681  -0.0609   0.1812   0.40    1.2
2029 421572.500   37.381194384 -121.941202319   -20.3415   2   7   0.1896   0.0899   0.3692  -0.0667  -0.0597   0.1777   0.50    1.2
2029 421572.600   37.381194394 -121.941202287   -20.3463   2   7   0.1860   0.0882   0.3623  -0.0655  -0.0586   0.1743   0.60    1.1
2029 421572.700   37.381194379 -121.941202288   -20.3663   2   7   0.1827   0.0866   0.3558  -0.0643  -0.0575   0.1712   0.70    1.1
2029 421572.800   37.381194370 -121.941202225   -20.3770   2   7   0.1795   0.0851   0.3496  -0.0632  -0.0565   0.1682   0.80    1.1
2029 421572.900   37.381194494 -121.941202245   -20.3907   2   7   0.1765   0.0837   0.3438  -0.0622  -0.0555   0.1654   0.90    1.1
2029 421573.000   37.381194613 -121.941202331   -20.3955   2   7   0.1736   0.0823   0.3382  -0.0611  -0.0546   0.1627   0.00    1.1
2029 421573.100   37.381194726 -121.941202375   -20.4131   2   7   0.1709   0.0810   0.3328  -0.0602  -0.0537   0.1601   0.10    1.1
2029 421573.200   37.381194858 -121.941202457   -20.4179   2   7   0.1683   0.0798   0.3277  -0.0593  -0.0529   0.1576   0.20    1.1
2029 421573.300   37.381195091 -121.941202545   -20.4427   2   7   0.1658   0.0786   0.3229  -0.0584  -0.0521   0.1553   0.30    1.1
2029 421573.400   37.381195152 -121.941202598   -20.4645   2   7   0.1634   0.0775   0.3182  -0.0576  -0.0514   0.1530   0.40    1.0
2029 421573.500   37.381195268 -121.941202667   -20.4581   2   7   0.1611   0.0764   0.3138  -0.0567  -0.0506   0.1509   0.50    1.0
2029 421573.600   37.381195394 -121.941202737   -20.4811   2   7   0.1589   0.0754   0.3095  -0.0560  -0.0500   0.1488   0.60    1.0
2029 421573.700   37.381195403 -121.941202763   -20.4978   2   7   0.1568   0.0744   0.3054  -0.0552  -0.0493   0.1468   0.70    1.0
2029 421573.800   37.381195461 -121.941202798   -20.5031   2   7   0.1548   0.0734   0.3015  -0.0545  -0.0486   0.1449   0.80    1.0
2029 421573.900   37.381195537 -121.941202877   -20.5571   2   7   0.1528   0.0725   0.2977  -0.0538  -0.0480   0.1431   0.90    1.0
2029 421574.000   37.381195631 -121.941202883   -20.5678   2   7   0.1510   0.0716   0.2940  -0.0532  -0.0474   0.1413   0.00    1.1
2029 421574.100   37.381195766 -121.941202947   -20.6162   2   7   0.1491   0.0707   0.2905  -0.0525  -0.0468   0.1396   0.10    1.1
2029 421574.200   37.381195848 -121.941202984   -20.6422   2   7   0.1474   0.0699   0.2871  -0.0519  -0.0463   0.1380   0.20    1.1
2029 421574.300   37.381196054 -121.941203030   -20.6794   2   7   0.1457   0.0691   0.2838  -0.0513  -0.0457   0.1364   0.30    1.2
2029 421574.400   37.381196209 -121.941203077   -20.7022   2   7   0.1441   0.0684   0.2806  -0.0508  -0.0452   0.1348   0.40    1.2
2029 421574.500   37.381196352 -121.941203090   -20.7320   2   7   0.1425   0.0676   0.2775  -0.0502  -0.0447   0.1334   0.50    1.2
2029 421574.600   37.381196516 -121.941203099   -20.7522   2   7   0.1410   0.0669   0.2746  -0.0497  -0.0442   0.1319   0.60    1.2
2029 421574.700   37.381196664 -121.941203143   -20.7767   2   7   0.1395   0.0662   0.2717  -0.0492  -0.0437   0.1305   0.70    1.3
2029 421574.800   37.381196702 -121.941203102   -20.7991   2   7   0.1381   0.0655   0.2689  -0.0486  -0.0433   0.1292   0.80    1.3
2029 421574.900   37.381196882 -121.941203143   -20.8240   2   7   0.1367   0.0649   0.2662  -0.0482  -0.0428   0.1278   0.90    1.3
2029 421575.000   37.381196947 -121.941203143   -20.8381   2   7   0.1353   0.0642   0.2635  -0.0477  -0.0424   0.1266   0.00    1.3
2029 421575.100   37.381196964 -121.941203129   -20.8648   2   7   0.1340   0.0636   0.2610  -0.0472  -0.0420   0.1253   0.10    1.3
2029 421575.200   37.381197005 -121.941203107   -20.8915   2   7   0.1327   0.0630   0.2585  -0.0468  -0.0416   0.1241   0.20    1.4
2029 421575.300   37.381197030 -121.941203100   -20.9214   2   7   0.1315   0.0625   0.2561  -0.0463  -0.0412   0.1229   0.30    1.4
2029 421575.400   37.381197078 -121.941203126   -20.9423   2   7   0.1303   0.0618   0.2537  -0.0459  -0.0408   0.1218   0.40    1.4
2029 421575.500   37.381197107 -121.941203107   -20.9650   2   7   0.1291   0.0613   0.2514  -0.0455  -0.0404   0.1207   0.50    1.4
2029 421575.600   37.381197163 -121.941203153   -20.9799   2   7   0.1280   0.0608   0.2492  -0.0451  -0.0401   0.1196   0.60    1.4
2029 421575.700   37.381197227 -121.941203191   -21.0100   2   7   0.1269   0.0603   0.2470  -0.0447  -0.0397   0.1186   0.70    1.4
2029 421575.800   37.381197202 -121.941203132   -21.0213   2   7   0.1258   0.0597   0.2449  -0.0443  -0.0394   0.1175   0.80    1.4
2029 421575.900   37.381197287 -121.941203144   -21.0428   2   7   0.1247   0.0593   0.2429  -0.0440  -0.0390   0.1165   0.90    1.4
2029 421576.000   37.381197277 -121.941203162   -21.0635   2   7   0.1237   0.0588   0.2408  -0.0436  -0.0387   0.1155   0.00    1.4
2029 421576.100   37.381197268 -121.941203082   -21.0810   2   7   0.1227   0.0583   0.2389  -0.0432  -0.0384   0.1146   0.10    1.4
2029 421576.200   37.381197251 -121.941203075   -21.0962   2   7   0.1217   0.0578   0.2370  -0.0429  -0.0380   0.1137   0.20    1.4
2029 421576.300   37.381197280 -121.941203088   -21.1190   2   7   0.1208   0.0573   0.2351  -0.0425  -0.0377   0.1127   0.30    1.4
2029 421576.400   37.381197334 -121.941203084   -21.1484   2   7   0.1198   0.0570   0.2333  -0.0422  -0.0374   0.1119   0.40    1.4
2029 421576.500   37.381197376 -121.941203110   -21.1578   2   7   0.1189   0.0565   0.2315  -0.0419  -0.0371   0.1110   0.50    1.4
2029 421576.600   37.381197434 -121.941203109   -21.1802   2   7   0.1180   0.0561   0.2297  -0.0416  -0.0368   0.1101   0.60    1.4
2029 421576.700   37.381197467 -121.941203119   -21.2054   2   7   0.1171   0.0556   0.2280  -0.0413  -0.0366   0.1093   0.70    1.4
2029 421576.800   37.381197537 -121.941203137   -21.2218   2   7   0.1163   0.0553   0.2264  -0.0410  -0.0363   0.1085   0.80    1.4
2029 421576.900   37.381197651 -121.941203151   -21.2519   2   7   0.1154   0.0549   0.2247  -0.0407  -0.0360   0.1077   0.90    1.4
2029 421577.000   37.381197650 -121.941203146   -21.2718   2   7   0.1146   0.0545   0.2231  -0.0404  -0.0357   0.1069   0.00    1.4
2029 421577.100   37.381197764 -121.941203191   -21.3027   2   7   0.1138   0.0541   0.2215  -0.0401  -0.0355   0.1061   0.10    1.4
2029 421577.200   37.381197845 -121.941203206   -21.3255   2   7   0.1130   0.0537   0.2200  -0.0398  -0.0352   0.1054   0.20    1.4
2029 421577.300   37.381197877 -121.941203215   -21.3572   2   7   0.1122   0.0534   0.2185  -0.0396  -0.0350   0.1047   0.30    1.4
2029 421577.400   37.381198026 -121.941203295   -21.3878   2   7   0.1115   0.0530   0.2170  -0.0393  -0.0348   0.1039   0.40    1.4
2029 421577.500   37.381198008 -121.941203280   -21.4249   2   7   0.1107   0.0527   0.2156  -0.0390  -0.0345   0.1032   0.50    1.4
2029 421577.600   37.381198063 -121.941203303   -21.4451   2   7   0.1100   0.0524   0.2141  -0.0388  -0.0343   0.1025   0.60    1.4
2029 421577.700   37.381198112 -121.941203331   -21.4882   2   7   0.1093   0.0520   0.2128  -0.0385  -0.0341   0.1019   0.70    1.4
2029 421577.800   37.381198202 -121.941203367   -21.5291   2   7   0.1086   0.0517   0.2114  -0.0383  -0.0338   0.1012   0.80    1.4
2029 421577.900   37.381198177 -121.941203335   -21.5539   2   7   0.1079   0.0514   0.2101  -0.0380  -0.0336   0.1005   0.90    1.4
2029 421578.000   37.381198204 -121.941203398   -21.5889   2   7   0.1072   0.0510   0.2087  -0.0378  -0.0334   0.0999   0.00    1.4
2029 421578.100   37.381198240 -121.941203478   -21.6241   2   7   0.1066   0.0508   0.2074  -0.0376  -0.0331   0.0992   0.10    1.4
2029 421578.200   37.381198288 -121.941203524   -21.6568   2   7   0.1059   0.0504   0.2061  -0.0373  -0.0329   0.0986   0.20    1.4
2029 421578.300   37.381198273 -121.941203583   -21.6948   2   7   0.1053   0.0502   0.2049  -0.0371  -0.0327   0.0980   0.30    1.4
2029 421578.400   37.381198325 -121.941203632   -21.7424   2   7   0.1046   0.0499   0.2037  -0.0369  -0.0325   0.0974   0.40    1.4
2029 421578.500   37.381198338 -121.941203667   -21.7600   2   7   0.1040   0.0496   0.2025  -0.0367  -0.0323   0.0968   0.50    1.4
2029 421578.600   37.381198299 -121.941203686   -21.7922   2   7   0.1034   0.0493   0.2013  -0.0365  -0.0321   0.0962   0.60    1.4
2029 421578.700   37.381198296 -121.941203716   -21.8176   2   7   0.1028   0.0490   0.2001  -0.0363  -0.0319   0.0957   0.70    1.4
2029 421578.800   37.381198264 -121.941203733   -21.8439   2   7   0.1022   0.0487   0.1990  -0.0361  -0.0317   0.0951   0.80    1.4
2029 421578.900   37.381198302 -121.941203795   -21.8873   2   7   0.1017   0.0485   0.1979  -0.0359  -0.0316   0.0945   0.90    1.4
2029 421579.000   37.381198322 -121.941203876   -21.9267   2   7   0.1011   0.0482   0.1967  -0.0357  -0.0314   0.0940   0.00    1.4
2029 421579.100   37.381198425 -121.941203946   -21.9513   2   7   0.1005   0.0480   0.1956  -0.0355  -0.0312   0.0934   0.10    1.4
2029 421579.200   37.381198490 -121.941204029   -21.9780   2   7   0.1000   0.0477   0.1946  -0.0353  -0.0310   0.0929   0.20    1.4
2029 421579.300   37.381198674 -121.941204118   -21.9978   2   7   0.0994   0.0474   0.1935  -0.0351  -0.0308   0.0924   0.30    1.4
2029 421579.400   37.381198673 -121.941204153   -22.0342   2   7   0.0989   0.0472   0.1925  -0.0349  -0.0307   0.0919   0.40    1.4
2029 421579.500   37.381198728 -121.941204218   -22.0565   2   7   0.0984   0.0469   0.1914  -0.0347  -0.0305   0.0914   0.50    1.4
2029 421579.600   37.381198857 -121.941204338   -22.0849   2   7   0.0979   0.0467   0.1904  -0.0345  -0.0303   0.0909   0.60    1.4
2029 421579.700   37.381198937 -121.941204379   -22.1117   2   7   0.0974   0.0465   0.1895  -0.0344  -0.0302   0.0904   0.70    1.4
2029 421579.800   37.381198947 -121.941204436   -22.1436   2   7   0.0969   0.0462   0.1885  -0.0342  -0.0300   0.0899   0.80    1.4
2029 421579.900   37.381199079 -121.941204557   -22.1828   2   7   0.0964   0.0460   0.1875  -0.0340  -0.0299   0.0895   0.90    1.4
2029 421580.000   37.381199114 -121.941204605   -22.2254   2   7   0.0959   0.0458   0.1865  -0.0338  -0.0297   0.0890   0.00    1.4
2029 421580.100   37.381199190 -121.941204634   -22.2550   2   7   0.0954   0.0456   0.1856  -0.0337  -0.0295   0.0885   0.10    1.4
2029 421580.200   37.381199246 -121.941204712   -22.2875   2   7   0.0949   0.0453   0.1847  -0.0335  -0.0293   0.0881   0.20    1.4
2029 421580.300   37.381199307 -121.941204770   -22.3235   2   7   0.0944   0.0451   0.1838  -0.0333  -0.0292   0.0876   0.30    1.3
2029 421580.400   37.381199398 -121.941204837   -22.3645   2   7   0.0940   0.0449   0.1829  -0.0332  -0.0291   0.0872   0.40    1.3
2029 421580.500   37.381199423 -121.941204908   -22.3956   2   7   0.0935   0.0447   0.1820  -0.0330  -0.0289   0.0867   0.50    1.3
2029 421580.600   37.381199543 -121.941204958   -22.4300   2   7   0.0931   0.0445   0.1811  -0.0328  -0.0288   0.0863   0.60    1.3
2029 421580.700   37.381199495 -121.941204975   -22.4582   2   7   0.0927   0.0443   0.1803  -0.0327  -0.0286   0.0859   0.70    1.3
2029 421580.800   37.381199647 -121.941205087   -22.4940   2   7   0.0922   0.0441   0.1794  -0.0325  -0.0285   0.0854   0.80    1.3
2029 421580.900   37.381199652 -121.941205128   -22.5099   2   7   0.0918   0.0438   0.1786  -0.0324  -0.0283   0.0850   0.90    1.3
2029 421581.000   37.381199763 -121.941205215   -22.5087   2   7   0.0914   0.0437   0.1777  -0.0323  -0.0282   0.0846   0.00    1.3
2029 421581.100   37.381199812 -121.941205246   -22.5307   2   7   0.0909   0.0435   0.1769  -0.0321  -0.0281   0.0842   0.10    1.3
2029 421581.200   37.381199919 -121.941205315   -22.5568   2   7   0.0905   0.0432   0.1761  -0.0320  -0.0279   0.0838   0.20    1.3
2029 421581.300   37.381199907 -121.941205344   -22.5610   2   7   0.0901   0.0431   0.1753  -0.0318  -0.0278   0.0834   0.30    1.3
2029 421581.400   37.381199974 -121.941205415   -22.5829   2   7   0.0897   0.0429   0.1745  -0.0317  -0.0276   0.0830   0.40    1.3
2029 421581.500   37.381200034 -121.941205483   -22.6064   2   7   0.0893   0.0427   0.1737  -0.0315  -0.0275   0.0826   0.50    1.3
2029 421581.600   37.381200104 -121.941205542   -22.6235   2   7   0.0889   0.0425   0.1730  -0.0314  -0.0274   0.0822   0.60    1.2
2029 421581.700   37.381200180 -121.941205605   -22.6334   2   7   0.0885   0.0424   0.1722  -0.0313  -0.0273   0.0819   0.70    1.3
2029 421581.800   37.381200240 -121.941205615   -22.6405   2   7   0.0882   0.0422   0.1715  -0.0311  -0.0271   0.0815   0.80    1.3
2029 421581.900   37.381200284 -121.941205664   -22.6473   2   7   0.0878   0.0420   0.1708  -0.0310  -0.0270   0.0811   0.90    1.3
2029 421582.000   37.381200182 -121.941205628   -22.6554   2   7   0.0874   0.0419   0.1700  -0.0308  -0.0269   0.0808   0.00    1.2
2029 421582.100   37.381200284 -121.941205701   -22.6800   2   7   0.0870   0.0417   0.1693  -0.0307  -0.0267   0.0804   0.10    1.3
2029 421582.200   37.381200295 -121.941205715   -22.6790   2   7   0.0867   0.0416   0.1686  -0.0306  -0.0266   0.0800   0.20    1.3
2029 421582.300   37.381200307 -121.941205730   -22.6881   2   7   0.0863   0.0413   0.1679  -0.0305  -0.0265   0.0797   0.30    1.3
2029 421582.400   37.381200285 -121.941205711   -22.6934   2   7   0.0860   0.0412   0.1672  -0.0303  -0.0264   0.0793   0.40    1.2
2029 421582.500   37.381200335 -121.941205761   -22.7157   2   7   0.0856   0.0410   0.1665  -0.0302  -0.0263   0.0790   0.50    1.2
2029 421582.600   37.381200341 -121.941205759   -22.7323   2   7   0.0853   0.0409   0.1658  -0.0301  -0.0261   0.0787   0.60    1.2
2029 421582.700   37.381200412 -121.941205780   -22.7307   2   7   0.0849   0.0407   0.1651  -0.0300  -0.0260   0.0783   0.70    1.2
2029 421582.800   37.381200407 -121.941205753   -22.7423   2   7   0.0846   0.0405   0.1645  -0.0299  -0.0260   0.0780   0.80    1.2
2029 421582.900   37.381200361 -121.941205744   -22.7608   2   7   0.0842   0.0404   0.1638  -0.0298  -0.0258   0.0777   0.90    1.2
2029 421583.000   37.381200358 -121.941205802   -22.7772   2   7   0.0839   0.0403   0.1631  -0.0296  -0.0257   0.0773   0.00    1.2
2029 421583.100   37.381200447 -121.941205843   -22.8028   2   7   0.0836   0.0401   0.1625  -0.0295  -0.0256   0.0770   0.10    1.2
2029 421583.200   37.381200415 -121.941205865   -22.8097   2   7   0.0832   0.0399   0.1619  -0.0294  -0.0255   0.0767   0.20    1.2
2029 421583.300   37.381200437 -121.941205830   -22.8322   2   7   0.0829   0.0398   0.1612  -0.0293  -0.0254   0.0764   0.30    1.2
2029 421583.400   37.381200495 -121.941205877   -22.8458   2   7   0.0826   0.0396   0.1606  -0.0292  -0.0253   0.0761   0.40    1.2
2029 421583.500   37.381200507 -121.941205881   -22.8518   2   7   0.0823   0.0395   0.1600  -0.0291  -0.0252   0.0758   0.50    1.2
2029 421583.600   37.381200461 -121.941205907   -22.8641   2   7   0.0820   0.0394   0.1594  -0.0289  -0.0251   0.0755   0.60    1.2
2029 421583.700   37.381200522 -121.941205975   -22.8910   2   7   0.0817   0.0392   0.1588  -0.0288  -0.0250   0.0751   0.70    1.2
2029 421583.800   37.381200429 -121.941205942   -22.9044   2   7   0.0814   0.0390   0.1582  -0.0288  -0.0248   0.0748   0.80    1.2
2029 421583.900   37.381200564 -121.941206036   -22.9284   2   7   0.0811   0.0390   0.1576  -0.0287  -0.0247   0.0746   0.90    1.2
2029 421584.000   37.381200382 -121.941205997   -22.9456   2   7   0.0807   0.0388   0.1570  -0.0285  -0.0246   0.0743   0.00    1.2
2029 421584.100   37.381200436 -121.941206021   -22.9561   2   7   0.0805   0.0387   0.1564  -0.0284  -0.0245   0.0740   0.10    1.2
2029 421584.200   37.381200369 -121.941205995   -22.9656   2   7   0.0802   0.0385   0.1559  -0.0283  -0.0244   0.0737   0.20    1.2
2029 421584.300   37.381200380 -121.941206039   -22.9832   2   7   0.0799   0.0384   0.1553  -0.0282  -0.0243   0.0734   0.30    1.1
2029 421584.400   37.381200415 -121.941206076   -22.9931   2   7   0.0796   0.0383   0.1547  -0.0281  -0.0243   0.0731   0.40    1.1
2029 421584.500   37.381200418 -121.941206121   -23.0016   2   7   0.0793   0.0381   0.1542  -0.0280  -0.0242   0.0728   0.50    1.1
2029 421584.600   37.381200383 -121.941206113   -23.0026   2   7   0.0790   0.0380   0.1536  -0.0279  -0.0241   0.0725   0.60    1.1
2029 421584.700   37.381200295 -121.941206098   -23.0181   2   7   0.0788   0.0379   0.1531  -0.0278  -0.0239   0.0723   0.70    1.1
2029 421584.800   37.381200385 -121.941206133   -23.0355   2   7   0.0785   0.0378   0.1525  -0.0278  -0.0239   0.0720   0.80    1.1
2029 421584.900   37.381200390 -121.941206142   -23.0355   2   7   0.0782   0.0377   0.1520  -0.0277  -0.0238   0.0717   0.90    1.1
2029 421585.000   37.381200429 -121.941206153   -23.0222   2   7   0.0779   0.0375   0.1515  -0.0276  -0.0237   0.0714   0.00    1.1
2029 421585.100   37.381200449 -121.941206146   -23.0345   2   7   0.0776   0.0374   0.1509  -0.0274  -0.0236   0.0712   0.10    1.1
2029 421585.200   37.381200447 -121.941206143   -23.0295   2   7   0.0774   0.0373   0.1504  -0.0274  -0.0235   0.0709   0.20    1.1
2029 421585.300   37.381200558 -121.941206181   -23.0412   2   7   0.0771   0.0372   0.1499  -0.0273  -0.0234   0.0706   0.30    1.1
2029 421585.400   37.381200582 -121.941206176   -23.0271   2   7   0.0769   0.0370   0.1494  -0.0271  -0.0234   0.0704   0.40    1.1
2029 421585.500   37.381200559 -121.941206159   -23.0295   2   7   0.0766   0.0369   0.1489  -0.0271  -0.0232   0.0701   0.50    1.1
2029 421585.600   37.381200640 -121.941206193   -23.0394   2   7   0.0763   0.0368   0.1484  -0.0270  -0.0232   0.0699   0.60    1.1
2029 421585.700   37.381200602 -121.941206178   -23.0296   2   7   0.0761   0.0367   0.1479  -0.0269  -0.0231   0.0696   0.70    1.1
2029 421585.800   37.381200650 -121.941206185   -23.0183   2   7   0.0758   0.0365   0.1474  -0.0268  -0.0230   0.0694   0.80    1.1
2029 421585.900   37.381200741 -121.941206216   -23.0308   2   7   0.0756   0.0364   0.1469  -0.0267  -0.0229   0.0691   0.90    1.1
2029 421586.000   37.381200661 -121.941206219   -23.0291   2   7   0.0753   0.0364   0.1464  -0.0266  -0.0228   0.0689   0.00    1.1
2029 421586.100   37.381200695 -121.941206218   -23.0519   2   7   0.0751   0.0363   0.1459  -0.0265  -0.0227   0.0686   0.10    1.1
2029 421586.200   37.381200671 -121.941206181   -23.0425   2   7   0.0748   0.0361   0.1455  -0.0265  -0.0226   0.0684   0.20    1.1
2029 421586.300   37.381200758 -121.941206252   -23.0538   2   7   0.0746   0.0360   0.1450  -0.0264  -0.0225   0.0681   0.30    1.1
2029 421586.400   37.381200742 -121.941206203   -23.0558   2   7   0.0744   0.0359   0.1445  -0.0263  -0.0224   0.0679   0.40    1.1
2029 421586.500   37.381200722 -121.941206197   -23.0614   2   7   0.0741   0.0358   0.1441  -0.0262  -0.0224   0.0677   0.50    1.2
2029 421586.600   37.381200655 -121.941206175   -23.0660   2   7   0.0739   0.0357   0.1436  -0.0262  -0.0223   0.0674   0.60    1.1
2029 421586.700   37.381200701 -121.941206198   -23.0614   2   7   0.0737   0.0355   0.1432  -0.0261  -0.0222   0.0672   0.70    1.1
2029 421586.800   37.381200717 -121.941206199   -23.0734   2   7   0.0734   0.0354   0.1427  -0.0260  -0.0222   0.0670   0.80    1.1
2029 421586.900   37.381200624 -121.941206169   -23.0801   2   7   0.0732   0.0354   0.1423  -0.0259  -0.0221   0.0668   0.90    1.1
2029 421587.000   37.381200579 -121.941206147   -23.0983   2   7   0.0730   0.0353   0.1418  -0.0258  -0.0220   0.0665   0.00    1.1
2029 421587.100   37.381200549 -121.941206155   -23.0966   2   7   0.0727   0.0351   0.1413  -0.0257  -0.0219   0.0663   0.10    1.1
2029 421587.200   37.381200566 -121.941206203   -23.1120   2   7   0.0725   0.0350   0.1409  -0.0256  -0.0219   0.0661   0.20    1.1
2029 421587.300   37.381200575 -121.941206184   -23.1196   2   7   0.0723   0.0350   0.1405  -0.0256  -0.0218   0.0658   0.30    1.1
2029 421587.400   37.381200477 -121.941206162   -23.1417   2   7   0.0721   0.0349   0.1401  -0.0255  -0.0217   0.0656   0.40    1.1
2029 421587.500   37.381200464 -121.941206197   -23.1445   2   7   0.0719   0.0348   0.1396  -0.0255  -0.0216   0.0654   0.50    1.1
2029 421587.600   37.381200475 -121.941206178   -23.1566   2   7   0.0717   0.0346   0.1392  -0.0253  -0.0216   0.0652   0.60    1.1
2029 421587.700   37.381200463 -121.941206227   -23.1662   2   7   0.0715   0.0346   0.1388  -0.0253  -0.0215   0.0650   0.70    1.1
2029 421587.800   37.381200463 -121.941206222   -23.1900   2   7   0.0712   0.0345   0.1384  -0.0252  -0.0214   0.0647   0.80    1.1
2029 421587.900   37.381200469 -121.941206246   -23.2062   2   7   0.0710   0.0344   0.1380  -0.0251  -0.0213   0.0645   0.90    1.1
2029 421588.000   37.381200418 -121.941206242   -23.2192   2   7   0.0708   0.0343   0.1375  -0.0251  -0.0212   0.0643   0.00    1.1
2029 421588.100   37.381200301 -121.941206236   -23.2259   2   7   0.0706   0.0342   0.1371  -0.0250  -0.0212   0.0641   0.10    1.1
2029 421588.200   37.381200195 -121.941206203   -23.2284   2   7   0.0704   0.0341   0.1367  -0.0249  -0.0211   0.0639   0.20    1.1
2029 421588.300   37.381200089 -121.941206196   -23.2426   2   7   0.0702   0.0340   0.1363  -0.0248  -0.0210   0.0637   0.30    1.1
2029 421588.400   37.381200002 -121.941206205   -23.2615   2   7   0.0700   0.0339   0.1359  -0.0248  -0.0210   0.0635   0.40    1.1
2029 421588.500   37.381199781 -121.941206148   -23.2711   2   7   0.0698   0.0338   0.1355  -0.0247  -0.0209   0.0633   0.50    1.1
2029 421588.600   37.381199550 -121.941206126   -23.2923   2   7   0.0696   0.0337   0.1351  -0.0246  -0.0208   0.0631   0.60    1.1
2029 421588.700   37.381199236 -121.941206045   -23.3212   2   7   0.0696   0.0338   0.1349  -0.0249  -0.0203   0.0626   0.70    1.0
2029 421588.800   37.381198990 -121.941205963   -23.3221   2   7   0.0694   0.0337   0.1344  -0.0248  -0.0205   0.0626   0.80    1.2
2029 421588.900   37.381198655 -121.941205864   -23.3231   2   7   0.0693   0.0337   0.1342  -0.0249  -0.0201   0.0623   0.90    1.2
2029 421589.000   37.381198292 -121.941205702   -23.3307   2   7   0.0691   0.0335   0.1337  -0.0247  -0.0204   0.0622   0.00    1.3
2029 421589.100   37.381197902 -121.941205553   -23.3296   2   7   0.0689   0.0334   0.1333  -0.0246  -0.0204   0.0621   0.10    1.4
2029 421589.200   37.381197493 -121.941205377   -23.3412   2   7   0.0687   0.0333   0.1330  -0.0245  -0.0203   0.0620   0.20    1.4
2029 421589.300   37.381196986 -121.941205207   -23.3753   2   7   0.0685   0.0332   0.1326  -0.0244  -0.0204   0.0618   0.30    1.3
2029 421589.400   37.381196545 -121.941205044   -23.3948   2   7   0.0683   0.0332   0.1323  -0.0244  -0.0203   0.0617   0.40    1.3
2029 421589.500   37.381196057 -121.941204830   -23.4265   2   7   0.0682   0.0331   0.1319  -0.0243  -0.0203   0.0615   0.50    1.2
2029 421589.600   37.381195610 -121.941204649   -23.4352   2   7   0.0680   0.0329   0.1316  -0.0242  -0.0203   0.0614   0.60    1.2
2029 421589.700   37.381195178 -121.941204480   -23.4550   2   7   0.0678   0.0330   0.1313  -0.0242  -0.0202   0.0612   0.70    1.2
2029 421589.800   37.381194620 -121.941204255   -23.4667   2   7   0.0677   0.0328   0.1309  -0.0241  -0.0202   0.0611   0.80    1.2
2029 421589.900   37.381194116 -121.941204119   -23.4524   2   7   0.0675   0.0327   0.1306  -0.0240  -0.0202   0.0610   0.90    1.2
2029 421590.000   37.381193479 -121.941203817   -23.4842   2   7   0.0673   0.0326   0.1302  -0.0239  -0.0202   0.0608   0.00    1.2
2029 421590.100   37.381192863 -121.941203489   -23.5127   2   7   0.0671   0.0325   0.1299  -0.0239  -0.0201   0.0607   0.10    1.1
2029 421590.200   37.381192063 -121.941203191   -23.5545   2   7   0.0670   0.0325   0.1296  -0.0238  -0.0201   0.0606   0.20    1.1
2029 421590.300   37.381191281 -121.941202871   -23.5812   2   7   0.0668   0.0324   0.1293  -0.0238  -0.0200   0.0604   0.30    1.1
2029 421590.400   37.381190778 -121.941202599   -23.5698   2   7   0.0666   0.0323   0.1289  -0.0237  -0.0200   0.0603   0.40    1.1
2029 421590.500   37.381190193 -121.941202250   -23.5620   2   7   0.0665   0.0322   0.1286  -0.0236  -0.0199   0.0601   0.50    1.1
2029 421590.600   37.381189392 -121.941201813   -23.5771   2   7   0.0667   0.0322   0.1287  -0.0239  -0.0204   0.0605   0.60    1.1
2029 421590.700   37.381188632 -121.941201514   -23.6051   2   7   0.0665   0.0321   0.1284  -0.0239  -0.0204   0.0604   0.70    1.1
2029 421590.800   37.381187973 -121.941201087   -23.6256   2   7   0.0664   0.0321   0.1281  -0.0238  -0.0203   0.0603   0.80    1.0
2029 421590.900   37.381187264 -121.941200610   -23.6208   2   7   0.0663   0.0319   0.1278  -0.0237  -0.0203   0.0602   0.90    1.1
2029 421591.000   37.381186486 -121.941200165   -23.6442   2   7   0.0661   0.0319   0.1275  -0.0237  -0.0203   0.0600   0.00    1.0
2029 421591.100   37.381185540 -121.941199651   -23.6672   2   7   0.0659   0.0318   0.1272  -0.0236  -0.0202   0.0599   0.10    1.0
2029 421591.200   37.381184825 -121.941199232   -23.6734   2   7   0.0658   0.0318   0.1269  -0.0236  -0.0202   0.0598   0.20    1.0
2029 421591.300   37.381184039 -121.941198785   -23.6743   2   6   0.0657   0.0317   0.1267  -0.0236  -0.0202   0.0597   0.30    1.1
2029 421591.400   37.381183113 -121.941198257   -23.7232   2   6   0.0656   0.0317   0.1264  -0.0235  -0.0202   0.0596   0.40    1.0
2029 421591.500   37.381182312 -121.941197801   -23.7349   2   6   0.0655   0.0316   0.1262  -0.0235  -0.0203   0.0596   0.50    1.0
2029 421591.600   37.381181504 -121.941197370   -23.7906   2   6   0.0654   0.0316   0.1260  -0.0236  -0.0201   0.0594   0.60    1.0
2029 421591.700   37.381180666 -121.941196903   -23.8332   2   6   0.0654   0.0315   0.1258  -0.0236  -0.0201   0.0593   0.70    1.0
2029 421591.800   37.381179837 -121.941196523   -23.8578   2   6   0.0653   0.0315   0.1256  -0.0236  -0.0201   0.0593   0.80    1.0
2029 421591.900   37.381179046 -121.941196126   -23.8794   2   6   0.0652   0.0313   0.1253  -0.0236  -0.0201   0.0592   0.90    1.0
2029 421592.000   37.381178158 -121.941195726   -23.9181   2   6   0.0650   0.0313   0.1251  -0.0236  -0.0201   0.0591   0.00    1.0
2029 421592.100   37.381177373 -121.941195338   -23.9369   2   6   0.0649   0.0313   0.1248  -0.0236  -0.0200   0.0590   0.10    1.0
2029 421592.200   37.381176481 -121.941194959   -24.0014   2   6   0.0648   0.0312   0.1246  -0.0236  -0.0200   0.0589   0.20    1.0
2029 421592.300   37.381175589 -121.941194594   -24.0129   2   6   0.0647   0.0311   0.1244  -0.0236  -0.0200   0.0588   0.30    1.0
2029 421592.400   37.381174683 -121.941194266   -24.0363   2   6   0.0646   0.0311   0.1242  -0.0236  -0.0200   0.0587   0.40    1.0
2029 421592.500   37.381173910 -121.941193975   -24.0445   2   6   0.0646   0.0311   0.1239  -0.0236  -0.0200   0.0587   0.50    1.0
2029 421592.600   37.381172960 -121.941193683   -24.0666   2   6   0.0645   0.0310   0.1237  -0.0235  -0.0200   0.0586   0.60    1.0
2029 421592.700   37.381172067 -121.941193332   -24.1080   2   6   0.0644   0.0310   0.1235  -0.0235  -0.0200   0.0585   0.70    1.0
2029 421592.800   37.381171082 -121.941193098   -24.1498   2   6   0.0643   0.0309   0.1233  -0.0236  -0.0199   0.0584   0.80    1.0
2029 421592.900   37.381170502 -121.941193014   -24.1780   2   6   0.0642   0.0309   0.1231  -0.0236  -0.0199   0.0584   0.90    1.0
2029 421593.000   37.381169411 -121.941192768   -24.2138   2   6   0.0641   0.0308   0.1228  -0.0235  -0.0199   0.0583   0.00    1.0
2029 421593.100   37.381168568 -121.941192530   -24.2468   2   6   0.0640   0.0307   0.1226  -0.0235  -0.0199   0.0582   0.10    1.0
2029 421593.200   37.381167610 -121.941192353   -24.2646   2   6   0.0639   0.0307   0.1224  -0.0235  -0.0199   0.0581   0.20    1.0
2029 421593.300   37.381167016 -121.941192312   -24.2743   2   6   0.0643   0.0309   0.1223  -0.0242  -0.0194   0.0577   0.30    1.1
2029 421593.400   37.381166151 -121.941192187   -24.3159   2   6   0.0640   0.0307   0.1220  -0.0239  -0.0197   0.0578   0.40    1.1
2029 421593.500   37.381165418 -121.941192080   -24.3378   2   6   0.0638   0.0306   0.1218  -0.0237  -0.0198   0.0578   0.50    1.1
2029 421593.600   37.381164656 -121.941191979   -24.3467   2   6   0.0637   0.0305   0.1216  -0.0237  -0.0198   0.0578   0.60    1.1
2029 421593.700   37.381164099 -121.941191962   -24.3766   2   6   0.0636   0.0305   0.1214  -0.0236  -0.0199   0.0577   0.70    1.1
2029 421593.800   37.381163625 -121.941191982   -24.3810   2   6   0.0635   0.0305   0.1212  -0.0236  -0.0198   0.0577   0.80    1.1
2029 421593.900   37.381163139 -121.941191955   -24.4009   2   6   0.0634   0.0303   0.1210  -0.0236  -0.0199   0.0576   0.90    1.1
2029 421594.000   37.381162629 -121.941191961   -24.4469   2   6   0.0633   0.0303   0.1207  -0.0236  -0.0198   0.0575   0.00    1.1
2029 421594.100   37.381162359 -121.941191996   -24.4613   2   6   0.0632   0.0302   0.1205  -0.0235  -0.0198   0.0574   0.10    1.1
2029 421594.200   37.381162030 -121.941191974   -24.4800   2   6   0.0631   0.0303   0.1203  -0.0235  -0.0198   0.0574   0.20    1.1
2029 421594.300   37.381161790 -121.941192053   -24.4838   2   6   0.0630   0.0302   0.1201  -0.0235  -0.0198   0.0573   0.30    1.1
2029 421594.400   37.381161511 -121.941192118   -24.4976   2   6   0.0629   0.0302   0.1199  -0.0235  -0.0198   0.0573   0.40    1.1
2029 421594.500   37.381161111 -121.941192176   -24.5250   2   6   0.0628   0.0300   0.1197  -0.0235  -0.0198   0.0572   0.50    1.1
2029 421594.600   37.381160771 -121.941192193   -24.5513   2   6   0.0627   0.0300   0.1196  -0.0235  -0.0198   0.0571   0.60    1.0
2029 421594.700   37.381160465 -121.941192242   -24.5581   2   6   0.0626   0.0300   0.1194  -0.0235  -0.0198   0.0571   0.70    1.0
2029 421594.800   37.381160166 -121.941192285   -24.5848   2   6   0.0626   0.0299   0.1192  -0.0235  -0.0197   0.0570   0.80    1.0
2029 421594.900   37.381159880 -121.941192377   -24.6044   2   6   0.0625   0.0299   0.1190  -0.0234  -0.0197   0.0569   0.90    1.0
2029 421595.000   37.381159468 -121.941192388   -24.6322   2   6   0.0624   0.0298   0.1188  -0.0234  -0.0197   0.0568   0.00    1.1
2029 421595.100   37.381159315 -121.941192454   -24.6489   2   6   0.0623   0.0298   0.1186  -0.0234  -0.0197   0.0568   0.10    1.1
2029 421595.200   37.381159282 -121.941192530   -24.6628   2   6   0.0622   0.0298   0.1184  -0.0234  -0.0197   0.0567   0.20    1.1
2029 421595.300   37.381159320 -121.941192645   -24.6827   2   6   0.0626   0.0299   0.1183  -0.0240  -0.0192   0.0563   0.30    1.1
2029 421595.400   37.381159396 -121.941192725   -24.7149   2   6   0.0622   0.0297   0.1180  -0.0236  -0.0195   0.0565   0.40    1.1
2029 421595.500   37.381159488 -121.941192843   -24.7354   2   6   0.0620   0.0296   0.1178  -0.0235  -0.0197   0.0565   0.50    1.1
2029 421595.600   37.381159610 -121.941192949   -24.7464   2   6   0.0619   0.0295   0.1176  -0.0234  -0.0197   0.0565   0.60    1.1
2029 421595.700   37.381159710 -121.941193063   -24.7671   2   6   0.0618   0.0295   0.1174  -0.0233  -0.0198   0.0564   0.70    1.1
2029 421595.800   37.381159786 -121.941193155   -24.7800   2   6   0.0617   0.0294   0.1172  -0.0233  -0.0198   0.0564   0.80    1.0
2029 421595.900   37.381159839 -121.941193223   -24.8074   2   6   0.0616   0.0294   0.1171  -0.0232  -0.0198   0.0563   0.90    1.0
2029 421596.000   37.381159860 -121.941193313   -24.8211   2   6   0.0615   0.0293   0.1168  -0.0233  -0.0197   0.0562   0.00    1.3
2029 421596.100   37.381159904 -121.941193396   -24.8416   2   6   0.0614   0.0293   0.1166  -0.0233  -0.0197   0.0561   0.10    1.3
2029 421596.200   37.381159967 -121.941193514   -24.8594   2   6   0.0614   0.0292   0.1165  -0.0232  -0.0197   0.0561   0.20    1.3
2029 421596.300   37.381160053 -121.941193608   -24.8680   2   6   0.0613   0.0292   0.1163  -0.0232  -0.0197   0.0560   0.30    1.3
2029 421596.400   37.381160127 -121.941193677   -24.8859   2   6   0.0612   0.0291   0.1161  -0.0232  -0.0197   0.0560   0.40    1.3
2029 421596.500   37.381160203 -121.941193752   -24.8973   2   6   0.0611   0.0291   0.1159  -0.0232  -0.0197   0.0559   0.50    1.4
2029 421596.600   37.381160246 -121.941193824   -24.9149   2   6   0.0610   0.0291   0.1157  -0.0232  -0.0197   0.0559   0.60    1.4
2029 421596.700   37.381160325 -121.941193911   -24.9270   2   6   0.0609   0.0290   0.1156  -0.0231  -0.0198   0.0558   0.70    1.4
2029 421596.800   37.381160413 -121.941193982   -24.9447   2   6   0.0609   0.0290   0.1154  -0.0231  -0.0198   0.0558   0.80    1.4
2029 421596.900   37.381160519 -121.941194067   -24.9684   2   6   0.0608   0.0289   0.1152  -0.0231  -0.0198   0.0557   0.90    1.4
2029 421597.000   37.381160677 -121.941194137   -24.9652   2   6   0.0607   0.0289   0.1150  -0.0230  -0.0198   0.0556   0.00    1.4
2029 421597.100   37.381160823 -121.941194213   -24.9887   2   6   0.0606   0.0288   0.1148  -0.0230  -0.0198   0.0556   0.10    1.4
2029 421597.200   37.381160962 -121.941194261   -25.0051   2   6   0.0605   0.0287   0.1146  -0.0230  -0.0197   0.0555   0.20    1.3
2029 421597.300   37.381161261 -121.941194361   -25.0199   2   7   0.0604   0.0287   0.1144  -0.0229  -0.0197   0.0554   0.30    1.4
2029 421597.400   37.381161553 -121.941194433   -25.0232   2   7   0.0601   0.0286   0.1141  -0.0228  -0.0194   0.0551   0.40    1.4
2029 421597.500   37.381161899 -121.941194478   -25.0266   2   7   0.0600   0.0285   0.1138  -0.0227  -0.0193   0.0549   0.50    1.5
2029 421597.600   37.381162246 -121.941194531   -25.0525   2   7   0.0600   0.0286   0.1139  -0.0229  -0.0187   0.0545   0.60    1.4
2029 421597.700   37.381162597 -121.941194526   -25.0687   2   7   0.0598   0.0285   0.1135  -0.0227  -0.0189   0.0545   0.70    1.6
2029 421597.800   37.381163032 -121.941194551   -25.0811   2   7   0.0597   0.0285   0.1133  -0.0226  -0.0190   0.0545   0.80    1.7
2029 421597.900   37.381163650 -121.941194505   -25.0799   2   7   0.0596   0.0284   0.1130  -0.0226  -0.0190   0.0544   0.90    1.7
2029 421598.000   37.381164213 -121.941194387   -25.1125   2   7   0.0594   0.0282   0.1128  -0.0224  -0.0191   0.0543   0.00    1.7
2029 421598.100   37.381165007 -121.941194245   -25.1373   2   7   0.0593   0.0282   0.1125  -0.0224  -0.0191   0.0543   0.10    1.7
2029 421598.200   37.381166028 -121.941194067   -25.1278   2   7   0.0591   0.0281   0.1123  -0.0223  -0.0190   0.0542   0.20    1.7
2029 421598.300   37.381167246 -121.941193779   -25.1523   2   7   0.0590   0.0281   0.1121  -0.0222  -0.0190   0.0541   0.30    1.7
2029 421598.400   37.381168553 -121.941193322   -25.1702   2   7   0.0589   0.0281   0.1119  -0.0222  -0.0190   0.0540   0.40    1.7
2029 421598.500   37.381169850 -121.941192696   -25.1730   2   7   0.0588   0.0279   0.1117  -0.0221  -0.0189   0.0539   0.50    1.7
2029 421598.600   37.381171402 -121.941192069   -25.1892   2   7   0.0587   0.0280   0.1115  -0.0221  -0.0189   0.0538   0.60    1.6
2029 421598.700   37.381172858 -121.941191349   -25.2103   2   7   0.0586   0.0279   0.1114  -0.0221  -0.0189   0.0537   0.70    1.7
2029 421598.800   37.381174531 -121.941190654   -25.2266   2   7   0.0585   0.0278   0.1112  -0.0220  -0.0189   0.0537   0.80    1.7
2029 421598.900   37.381176165 -121.941189673   -25.2430   2   7   0.0584   0.0278   0.1110  -0.0219  -0.0188   0.0536   0.90    1.7
2029 421599.000   37.381177561 -121.941188573   -25.2414   2   7   0.0583   0.0278   0.1108  -0.0219  -0.0188   0.0535   0.00    1.7
2029 421599.100   37.381179180 -121.941187443   -25.2615   2   7   0.0582   0.0276   0.1106  -0.0218  -0.0188   0.0534   0.10    1.6
2029 421599.200   37.381180900 -121.941186215   -25.2624   2   7   0.0581   0.0277   0.1104  -0.0218  -0.0188   0.0533   0.20    1.6
2029 421599.300   37.381182420 -121.941184751   -25.2672   2   7   0.0580   0.0276   0.1102  -0.0218  -0.0186   0.0532   0.30    1.6
2029 421599.400   37.381183911 -121.941183211   -25.2874   2   7   0.0579   0.0275   0.1100  -0.0217  -0.0186   0.0531   0.40    1.6
2029 421599.500   37.381185341 -121.941181541   -25.3089   2   7   0.0578   0.0275   0.1098  -0.0217  -0.0186   0.0530   0.50    1.5
2029 421599.600   37.381186910 -121.941179982   -25.3524   2   7   0.0577   0.0275   0.1097  -0.0216  -0.0186   0.0529   0.60    1.5
2029 421599.700   37.381188234 -121.941178199   -25.3607   2   7   0.0576   0.0274   0.1095  -0.0216  -0.0186   0.0529   0.70    1.5
2029 421599.800   37.381189589 -121.941176333   -25.3701   2   7   0.0575   0.0274   0.1093  -0.0215  -0.0185   0.0528   0.80    1.5
2029 421599.900   37.381190870 -121.941174349   -25.3964   2   7   0.0574   0.0274   0.1091  -0.0215  -0.0185   0.0527   0.90    1.5
2029 421600.000   37.381191977 -121.941172344   -25.4035   2   7   0.0573   0.0273   0.1089  -0.0215  -0.0184   0.0526   0.00    1.5
2029 421600.100   37.381193176 -121.941170231   -25.4199   2   7   0.0574   0.0275   0.1091  -0.0218  -0.0177   0.0521   0.10    1.1
2029 421600.200   37.381194256 -121.941168088   -25.4524   2   7   0.0573   0.0273   0.1089  -0.0217  -0.0176   0.0520   0.20    1.2
2029 421600.300   37.381195411 -121.941165900   -25.4643   2   7   0.0572   0.0273   0.1088  -0.0216  -0.0177   0.0520   0.30    1.2
2029 421600.400   37.381196462 -121.941163671   -25.4727   2   7   0.0570   0.0272   0.1085  -0.0215  -0.0178   0.0520   0.40    1.2
2029 421600.500   37.381197479 -121.941161386   -25.4675   2   7   0.0569   0.0272   0.1083  -0.0215  -0.0178   0.0519   0.50    1.1
2029 421600.600   37.381198378 -121.941159029   -25.5180   2   7   0.0569   0.0271   0.1082  -0.0216  -0.0175   0.0517   0.60    1.1
2029 421600.700   37.381199102 -121.941156555   -25.5287   2   7   0.0568   0.0271   0.1081  -0.0215  -0.0174   0.0516   0.70    1.1
2029 421600.800   37.381199942 -121.941154013   -25.5232   2   7   0.0567   0.0271   0.1079  -0.0215  -0.0174   0.0515   0.80    1.0
2029 421600.900   37.381200702 -121.941151343   -25.5417   2   7   0.0567   0.0270   0.1078  -0.0214  -0.0174   0.0515   0.90    1.0
2029 421601.000   37.381201475 -121.941148547   -25.5251   2   7   0.0565   0.0269   0.1074  -0.0213  -0.0176   0.0515   0.00    1.0
2029 421601.100   37.381201985 -121.941145605   -25.5425   2   7   0.0564   0.0269   0.1074  -0.0214  -0.0173   0.0513   0.10    1.0
2029 421601.200   37.381202617 -121.941142564   -25.5381   2   7   0.0563   0.0268   0.1071  -0.0212  -0.0175   0.0513   0.20    1.1
2029 421601.300   37.381203198 -121.941139339   -25.5394   2   7   0.0562   0.0268   0.1069  -0.0212  -0.0175   0.0513   0.30    1.1
2029 421601.400   37.381203737 -121.941136008   -25.5873   2   7   0.0561   0.0268   0.1067  -0.0211  -0.0175   0.0512   0.40    1.1
2029 421601.500   37.381204237 -121.941132540   -25.5841   2   7   0.0560   0.0267   0.1065  -0.0211  -0.0175   0.0511   0.50    1.1
2029 421601.600   37.381204625 -121.941128974   -25.5774   2   7   0.0559   0.0266   0.1064  -0.0210  -0.0175   0.0511   0.60    1.1
2029 421601.700   37.381205092 -121.941125206   -25.6176   2   7   0.0558   0.0265   0.1061  -0.0209  -0.0177   0.0511   0.70    1.3
2029 421601.800   37.381205581 -121.941121445   -25.6369   2   7   0.0557   0.0266   0.1059  -0.0209  -0.0177   0.0510   0.80    1.4
2029 421601.900   37.381206103 -121.941117679   -25.6553   2   7   0.0556   0.0264   0.1058  -0.0208  -0.0177   0.0510   0.90    1.4
2029 421602.000   37.381206539 -121.941113751   -25.6338   2   7   0.0555   0.0265   0.1055  -0.0208  -0.0177   0.0509   0.00    1.3
2029 421602.100   37.381207073 -121.941109897   -25.6157   2   7   0.0554   0.0264   0.1054  -0.0207  -0.0177   0.0508   0.10    1.4
2029 421602.200   37.381207634 -121.941105875   -25.6728   2   7   0.0553   0.0269   0.1068  -0.0208  -0.0204   0.0509   0.20    1.3
2029 421602.300   37.381208207 -121.941101810   -25.6761   2   7   0.0552   0.0266   0.1059  -0.0207  -0.0191   0.0507   0.30    1.3
2029 421602.400   37.381208850 -121.941097681   -25.6823   2   7   0.0552   0.0265   0.1054  -0.0207  -0.0185   0.0506   0.40    1.2
2029 421602.500   37.381209316 -121.941093686   -25.6537   2   7   0.0551   0.0264   0.1051  -0.0206  -0.0183   0.0506   0.50    1.2
2029 421602.600   37.381210015 -121.941089618   -25.6797   2   7   0.0550   0.0263   0.1049  -0.0206  -0.0181   0.0505   0.60    1.0
2029 421602.700   37.381210691 -121.941085305   -25.7123   2   5   0.0552   0.0269   0.1098  -0.0205  -0.0214   0.0492   0.70    1.4
2029 421602.800   37.381211239 -121.941081316   -25.6375   2   5   0.0551   0.0269   0.1097  -0.0205  -0.0214   0.0491   0.80    1.2
2029 421602.900   37.381212104 -121.941076851   -25.7079   2   5   0.0550   0.0269   0.1097  -0.0205  -0.0215   0.0490   0.90    1.1
2029 421603.000   37.381213067 -121.941072671   -25.7116   2   5   0.0549   0.0268   0.1094  -0.0205  -0.0214   0.0489   0.00    1.1
2029 421603.100   37.381213807 -121.941068276   -25.7333   2   5   0.0548   0.0268   0.1093  -0.0205  -0.0213   0.0488   0.10    1.0
2029 421603.200   37.381214401 -121.941064125   -25.7307   2   5   0.0548   0.0267   0.1092  -0.0204  -0.0214   0.0487   0.20    1.1
2029 421603.300   37.381215325 -121.941060040   -25.7488   2   5   0.0547   0.0267   0.1092  -0.0204  -0.0214   0.0486   0.30    1.2
2029 421603.400   37.381216033 -121.941056124   -25.8169   2   5   0.0546   0.0267   0.1091  -0.0204  -0.0214   0.0485   0.40    1.3
2029 421603.500   37.381216553 -121.941052398   -25.7606   2   5   0.0546   0.0267   0.1090  -0.0204  -0.0214   0.0484   0.50    1.3
2029 421603.600   37.381217401 -121.941048962   -25.7570   2   5   0.0545   0.0267   0.1090  -0.0204  -0.0215   0.0483   0.60    1.4
2029 421603.700   37.381218089 -121.941045687   -25.7693   2   5   0.0544   0.0266   0.1090  -0.0203  -0.0215   0.0482   0.70    1.4
2029 421603.800   37.381218609 -121.941042365   -25.7948   2   5   0.0544   0.0267   0.1089  -0.0204  -0.0215   0.0481   0.80    1.5
2029 421603.900   37.381219606 -121.941039126   -25.8919   2   5   0.0543   0.0267   0.1089  -0.0203  -0.0216   0.0480   0.90    1.5
2029 421604.000   37.381220232 -121.941036047   -25.8787   2   5   0.0542   0.0266   0.1086  -0.0203  -0.0214   0.0480   0.00    1.6
2029 421604.100   37.381221007 -121.941033109   -25.9448   2   5   0.0541   0.0266   0.1085  -0.0203  -0.0214   0.0479   0.10    1.6
2029 421604.200   37.381221147 -121.941030554   -25.7744   2   5   0.0541   0.0266   0.1084  -0.0203  -0.0215   0.0478   0.20    1.7
2029 421604.300   37.381221886 -121.941027638   -25.8279   2   5   0.0540   0.0266   0.1084  -0.0203  -0.0215   0.0477   0.30    1.8
2029 421604.400   37.381222337 -121.941025049   -25.7758   2   5   0.0539   0.0266   0.1083  -0.0203  -0.0215   0.0476   0.40    2.0
2029 421604.500   37.381223140 -121.941022278   -25.7963   2   5   0.0539   0.0266   0.1082  -0.0202  -0.0215   0.0475   0.50    2.2
2029 421604.600   37.381223592 -121.941019375   -25.8845   2   5   0.0538   0.0265   0.1082  -0.0202  -0.0215   0.0474   0.60    2.3
2029 421604.700   37.381223983 -121.941016858   -25.8267   2   5   0.0537   0.0265   0.1082  -0.0202  -0.0216   0.0473   0.70    2.3
2029 421604.800   37.381224927 -121.941014277   -25.9252   2   5   0.0537   0.0265   0.1081  -0.0202  -0.0216   0.0472   0.80    2.4
2029 421604.900   37.381225563 -121.941012112   -25.8406   2   5   0.0536   0.0265   0.1081  -0.0202  -0.0216   0.0471   0.90    2.6
2029 421605.000   37.381225933 -121.941009742   -25.8833   2   5   0.0535   0.0264   0.1078  -0.0201  -0.0215   0.0471   0.00    2.8
2029 421605.100   37.381228186 -121.941008286   -25.9221   1   5   0.0109   0.0076   0.0389  -0.0035  -0.0125  -0.0062   0.10    3.1
2029 421605.200   37.381228542 -121.941006231   -25.9718   1   5   0.0109   0.0076   0.0389  -0.0034  -0.0125  -0.0062   0.20    3.4
2029 421605.300   37.381229202 -121.941004545   -25.9255   1   5   0.0109   0.0076   0.0389  -0.0035  -0.0125  -0.0062   0.30    3.5
2029 421605.400   37.381229722 -121.941002791   -25.9653   1   5   0.0109   0.0077   0.0390  -0.0035  -0.0125  -0.0063   0.40    3.9
2029 421605.500   37.381230040 -121.941000911   -26.0715   1   5   0.0110   0.0078   0.0391  -0.0036  -0.0126  -0.0063   0.50    4.5
2029 421605.600   37.381230177 -121.940999602   -25.9843   1   5   0.0110   0.0077   0.0392  -0.0035  -0.0126  -0.0063   0.60    4.5
2029 421605.700   37.381230464 -121.940998302   -26.0346   1   5   0.0110   0.0078   0.0393  -0.0035  -0.0126  -0.0064   0.70    4.5
2029 421605.800   37.381230758 -121.940997486   -26.0124   1   5   0.0110   0.0077   0.0394  -0.0035  -0.0127  -0.0064   0.80    4.8
2029 421605.900   37.381231023 -121.940996815   -26.0108   1   5   0.0111   0.0079   0.0395  -0.0036  -0.0127  -0.0065   0.90    5.3
2029 421606.000   37.381231119 -121.940996259   -25.9695   1   5   0.0109   0.0077   0.0388  -0.0035  -0.0125  -0.0062   0.00    6.1
2029 421606.100   37.381231110 -121.940995711   -25.9580   1   5   0.0109   0.0078   0.0388  -0.0036  -0.0125  -0.0062   0.10    6.7
2029 421606.200   37.381231191 -121.940995183   -25.9924   1   5   0.0109   0.0077   0.0389  -0.0035  -0.0125  -0.0063   0.20    7.2
2029 421606.300   37.381231285 -121.940994764   -26.0108   1   5   0.0109   0.0076   0.0389  -0.0034  -0.0125  -0.0062   0.30    7.5
2029 421606.400   37.381231354 -121.940994491   -26.0115   1   5   0.0109   0.0077   0.0390  -0.0035  -0.0126  -0.0063   0.40    7.9
2029 421606.500   37.381231246 -121.940994192   -26.0061   1   5   0.0110   0.0076   0.0390  -0.0034  -0.0126  -0.0063   0.50    7.8
2029 421606.600   37.381231248 -121.940993993   -25.9718   1   5   0.0110   0.0077   0.0391  -0.0035  -0.0126  -0.0064   0.60    7.5
2029 421606.700   37.381231306 -121.940993753   -25.9623   1   5   0.0110   0.0078   0.0392  -0.0036  -0.0126  -0.0064   0.70    7.2
2029 421606.800   37.381231541 -121.940993562   -25.8919   1   5   0.0111   0.0078   0.0394  -0.0036  -0.0127  -0.0064   0.80    7.4
2029 421606.900   37.381231724 -121.940993266   -25.8779   1   5   0.0111   0.0078   0.0395  -0.0035  -0.0127  -0.0065   0.90    7.7
2029 421607.000   37.381231727 -121.940992920   -25.8574   1   5   0.0109   0.0077   0.0388  -0.0035  -0.0125  -0.0062   0.00    8.0
2029 421607.100   37.381231833 -121.940992566   -25.8863   1   5   0.0109   0.0077   0.0388  -0.0035  -0.0125  -0.0062   0.10    8.4
2029 421607.200   37.381232016 -121.940992189   -25.9251   1   5   0.0109   0.0076   0.0389  -0.0035  -0.0125  -0.0062   0.20    8.5
2029 421607.300   37.381232119 -121.940991868   -25.9504   1   5   0.0109   0.0076   0.0389  -0.0036  -0.0125  -0.0062   0.30    8.1
2029 421607.400   37.381232251 -121.940991569   -25.9558   1   5   0.0109   0.0077   0.0390  -0.0035  -0.0125  -0.0062   0.40    7.6
2029 421607.500   37.381232346 -121.940991248   -25.9720   1   5   0.0110   0.0077   0.0390  -0.0035  -0.0126  -0.0063   0.50    7.0
2029 421607.600   37.381232414 -121.940990924   -25.9810   1   5   0.0110   0.0079   0.0391  -0.0037  -0.0126  -0.0064   0.60    6.4
2029 421607.700   37.381232499 -121.940990569   -26.0008   1   5   0.0110   0.0077   0.0392  -0.0035  -0.0126  -0.0064   0.70    6.1
2029 421607.800   37.381232548 -121.940990367   -25.9789   1   5   0.0110   0.0077   0.0393  -0.0035  -0.0127  -0.0064   0.80    5.9
2029 421607.900   37.381232581 -121.940990241   -25.9758   1   5   0.0111   0.0078   0.0395  -0.0035  -0.0127  -0.0065   0.90    5.8
2029 421608.000   37.381232610 -121.940990181   -26.0077   1   5   0.0109   0.0076   0.0388  -0.0036  -0.0125  -0.0062   0.00    5.8
2029 421608.100   37.381232598 -121.940990195   -25.9950   1   5   0.0109   0.0076   0.0388  -0.0034  -0.0125  -0.0062   0.10    5.8
2029 421608.200   37.381232575 -121.940990252   -25.9886   1   5   0.0109   0.0076   0.0388  -0.0035  -0.0125  -0.0063   0.20    5.7
2029 421608.300   37.381232607 -121.940990232   -25.9928   1   5   0.0109   0.0076   0.0389  -0.0035  -0.0125  -0.0063   0.30    5.7
2029 421608.400   37.381232576 -121.940990278   -25.9766   1   5   0.0110   0.0077   0.0389  -0.0035  -0.0125  -0.0063   0.40    5.6
2029 421608.500   37.381232582 -121.940990220   -25.9879   1   5   0.0110   0.0077   0.0390  -0.0035  -0.0125  -0.0063   0.50    5.5
2029 421608.600   37.381232625 -121.940990213   -26.0029   1   5   0.0110   0.0078   0.0391  -0.0035  -0.0126  -0.0064   0.60    5.4
2029 421608.700   37.381232593 -121.940990230   -25.9806   1   5   0.0110   0.0078   0.0392  -0.0035  -0.0126  -0.0064   0.70    5.3
2029 421608.800   37.381232600 -121.940990222   -25.9905   1   5   0.0111   0.0077   0.0393  -0.0035  -0.0126  -0.0064   0.80    5.2
2029 421608.900   37.381232554 -121.940990173   -26.0115   1   5   0.0111   0.0078   0.0395  -0.0036  -0.0127  -0.0065   0.90    5.1
2029 421609.000   37.381232633 -121.940990284   -25.9914   1   5   0.0109   0.0078   0.0388  -0.0036  -0.0124  -0.0063   0.00    5.0
2029 421609.100   37.381232637 -121.940990285   -25.9811   1   5   0.0109   0.0077   0.0388  -0.0035  -0.0124  -0.0063   0.10    4.9
2029 421609.200   37.381232612 -121.940990302   -25.9666   1   5   0.0109   0.0078   0.0388  -0.0036  -0.0124  -0.0063   0.20    4.8
2029 421609.300   37.381232116 -121.940991488   -26.1789   2   7   0.0509   0.0258   0.1047  -0.0195  -0.0217   0.0436   0.30    1.4
2029 421609.400   37.381232152 -121.940991537   -26.1816   2   7   0.0508   0.0254   0.1023  -0.0196  -0.0198   0.0439   0.40    1.1
2029 421609.500   37.381232227 -121.940991546   -26.1903   2   7   0.0507   0.0253   0.1015  -0.0196  -0.0191   0.0439   0.50    1.2
2029 421609.600   37.381232355 -121.940991544   -26.2033   2   7   0.0507   0.0252   0.1006  -0.0196  -0.0185   0.0440   0.60    1.0
2029 421609.700   37.381232516 -121.940991490   -26.1996   2   7   0.0505   0.0251   0.0999  -0.0195  -0.0185   0.0442   0.70    1.1
2029 421609.800   37.381232667 -121.940991382   -26.2005   2   7   0.0504   0.0250   0.0995  -0.0194  -0.0184   0.0443   0.80    1.2
2029 421609.900   37.381232798 -121.940991241   -26.2068   2   7   0.0504   0.0250   0.0992  -0.0194  -0.0183   0.0443   0.90    1.2
2029 421610.000   37.381232919 -121.940991133   -26.2138   2   7   0.0503   0.0249   0.0989  -0.0194  -0.0182   0.0443   0.00    1.2
2029 421610.100   37.381233066 -121.940991075   -26.2152   2   7   0.0502   0.0248   0.0987  -0.0193  -0.0181   0.0442   0.10    1.3
2029 421610.200   37.381233148 -121.940991045   -26.2206   2   7   0.0501   0.0248   0.0985  -0.0193  -0.0180   0.0442   0.20    1.3
2029 421610.300   37.381233207 -121.940991022   -26.2329   2   7   0.0500   0.0248   0.0983  -0.0193  -0.0180   0.0442   0.30    1.3
2029 421610.400   37.381233283 -121.940991072   -26.2348   2   7   0.0500   0.0248   0.0981  -0.0193  -0.0178   0.0441   0.40    1.3
2029 421610.500   37.381233311 -121.940991131   -26.2474   2   7   0.0499   0.0247   0.0980  -0.0192  -0.0178   0.0441   0.50    1.2
2029 421610.600   37.381233382 -121.940991212   -26.2474   2   7   0.0499   0.0247   0.0978  -0.0192  -0.0178   0.0440   0.60    1.1
2029 421610.700   37.381233406 -121.940991288   -26.2641   2   7   0.0498   0.0247   0.0977  -0.0192  -0.0177   0.0440   0.70    1.0
2029 421610.800   37.381233456 -121.940991346   -26.2634   2   7   0.0498   0.0245   0.0975  -0.0191  -0.0177   0.0439   0.80    1.0
2029 421610.900   37.381233521 -121.940991391   -26.2616   2   7   0.0497   0.0244   0.0974  -0.0191  -0.0176   0.0439   0.90    1.0
2029 421611.000   37.381233567 -121.940991471   -26.2600   2   7   0.0496   0.0245   0.0972  -0.0191  -0.0176   0.0438   0.00    1.0
2029 421611.100   37.381233569 -121.940991513   -26.2609   2   7   0.0495   0.0244   0.0970  -0.0190  -0.0175   0.0438   0.10    1.0
2029 421611.200   37.381233658 -121.940991576   -26.2720   2   7   0.0495   0.0244   0.0969  -0.0190  -0.0175   0.0438   0.20    1.0
2029 421611.300   37.381233698 -121.940991621   -26.2713   2   7   0.0494   0.0244   0.0968  -0.0190  -0.0174   0.0437   0.30    1.0
2029 421611.400   37.381233713 -121.940991701   -26.2720   2   7   0.0494   0.0244   0.0966  -0.0190  -0.0174   0.0437   0.40    1.0
2029 421611.500   37.381233807 -121.940991729   -26.2713   2   7   0.0493   0.0243   0.0965  -0.0189  -0.0174   0.0436   0.50    1.0
2029 421611.600   37.381233823 -121.940991769   -26.2684   2   7   0.0494   0.0245   0.0967  -0.0192  -0.0167   0.0432   0.60    1.2
2029 421611.700   37.381233849 -121.940991828   -26.2762   2   7   0.0493   0.0243   0.0964  -0.0190  -0.0170   0.0434   0.70    1.2
2029 421611.800   37.381233896 -121.940991893   -26.2782   2   7   0.0492   0.0243   0.0962  -0.0190  -0.0171   0.0434   0.80    1.1
2029 421611.900   37.381233948 -121.940991935   -26.2779   2   7   0.0491   0.0242   0.0961  -0.0189  -0.0171   0.0434   0.90    1.0
2029 421612.000   37.381233921 -121.940991945   -26.2817   2   7   0.0490   0.0241   0.0958  -0.0188  -0.0172   0.0433   0.00    1.0
2029 421612.100   37.381233926 -121.940992008   -26.2900   2   7   0.0489   0.0241   0.0957  -0.0188  -0.0172   0.0433   0.10    1.0
2029 421612.200   37.381233999 -121.940992078   -26.2875   2   7   0.0489   0.0241   0.0955  -0.0188  -0.0172   0.0433   0.20    1.0
2029 421612.300   37.381234023 -121.940992102   -26.2914   2   7   0.0488   0.0240   0.0954  -0.0187  -0.0172   0.0433   0.30    1.0
2029 421612.400   37.381234058 -121.940992155   -26.2855   2   7   0.0487   0.0240   0.0953  -0.0187  -0.0172   0.0432   0.40    1.0
2029 421612.500   37.381234066 -121.940992177   -26.2884   2   7   0.0487   0.0240   0.0952  -0.0186  -0.0172   0.0432   0.50    1.0
2029 421612.600   37.381234097 -121.940992214   -26.2904   2   7   0.0486   0.0240   0.0950  -0.0186  -0.0171   0.0431   0.60    1.0
2029 421612.700   37.381234123 -121.940992264   -26.2947   2   7   0.0486   0.0239   0.0949  -0.0186  -0.0171   0.0431   0.70    1.0
2029 421612.800   37.381234142 -121.940992312   -26.2888   2   7   0.0485   0.0240   0.0948  -0.0186  -0.0171   0.0431   0.80    1.0
2029 421612.900   37.381234159 -121.940992342   -26.3000   2   7   0.0485   0.0239   0.0947  -0.0185  -0.0171   0.0430   0.90    1.0
2029 421613.000   37.381234207 -121.940992397   -26.3052   2   7   0.0484   0.0238   0.0945  -0.0185  -0.0170   0.0430   0.00    1.0
2029 421613.100   37.381234209 -121.940992423   -26.3031   2   7   0.0483   0.0238   0.0944  -0.0185  -0.0170   0.0429   0.10    1.0
2029 421613.200   37.381234281 -121.940992483   -26.3009   2   7   0.0483   0.0238   0.0943  -0.0184  -0.0170   0.0429   0.20    1.0
2029 421613.300   37.381234341 -121.940992520   -26.3022   2   7   0.0482   0.0238   0.0942  -0.0184  -0.0169   0.0428   0.30    1.0
2029 421613.400   37.381234353 -121.940992543   -26.3016   2   7   0.0481   0.0237   0.0940  -0.0184  -0.0169   0.0428   0.40    1.0
2029 421613.500   37.381234382 -121.940992575   -26.3196   2   7   0.0481   0.0236   0.0939  -0.0184  -0.0169   0.0427   0.50    1.0
2029 421613.600   37.381234436 -121.940992603   -26.3126   2   7   0.0480   0.0237   0.0938  -0.0184  -0.0168   0.0427   0.60    1.0
2029 421613.700   37.381234469 -121.940992639   -26.3078   2   7   0.0480   0.0236   0.0937  -0.0183  -0.0169   0.0426   0.70    1.0
2029 421613.800   37.381234449 -121.940992682   -26.3235   2   7   0.0479   0.0236   0.0936  -0.0183  -0.0169   0.0426   0.80    1.0
2029 421613.900   37.381234535 -121.940992724   -26.3091   2   7   0.0479   0.0235   0.0935  -0.0183  -0.0168   0.0426   0.90    1.0
2029 421614.000   37.381234576 -121.940992782   -26.3026   2   7   0.0478   0.0236   0.0933  -0.0182  -0.0168   0.0425   0.00    1.0
2029 421614.100   37.381234653 -121.940992809   -26.2982   2   7   0.0477   0.0235   0.0932  -0.0182  -0.0167   0.0424   0.10    1.0
2029 421614.200   37.381234695 -121.940992873   -26.2898   2   7   0.0477   0.0234   0.0931  -0.0181  -0.0168   0.0424   0.20    1.0
2029 421614.300   37.381234671 -121.940992872   -26.2976   2   7   0.0476   0.0234   0.0930  -0.0182  -0.0167   0.0424   0.30    1.0
2029 421614.400   37.381234726 -121.940992917   -26.2974   2   7   0.0476   0.0235   0.0929  -0.0181  -0.0167   0.0423   0.40    1.0
2029 421614.500   37.381234762 -121.940992933   -26.3071   2   7   0.0475   0.0233   0.0928  -0.0181  -0.0166   0.0423   0.50    1.0
2029 421614.600   37.381234768 -121.940992974   -26.2985   2   7   0.0475   0.0235   0.0927  -0.0181  -0.0166   0.0422   0.60    1.0
